id_mutation,date_mutation,numero_disposition,nature_mutation,valeur_fonciere,adresse_numero,adresse_suffixe,adresse_nom_voie,adresse_code_voie,code_postal,code_commune,nom_commune,code_departement,ancien_code_commune,ancien_nom_commune,id_parcelle,ancien_id_parcelle,numero_volume,lot1_numero,lot1_surface_carrez,lot2_numero,lot2_surface_carrez,lot3_numero,lot3_surface_carrez,lot4_numero,lot4_surface_carrez,lot5_numero,lot5_surface_carrez,nombre_lots,code_type_local,type_local,surface_reelle_bati,nombre_pieces_principales,code_nature_culture,nature_culture,code_nature_culture_speciale,nature_culture_speciale,surface_terrain,longitude,latitude
2023-366133,2023-01-18,000001,Vente,51740,,,AL RIVAL,B001,31540,31371,Montégut-Lauragais,31,,,313710000B0881,,,,,,,,,,,,,0,,,,,T,terres,,,779,1.921267,43.478741
2023-368630,2023-02-24,000002,Vente,6025,,,PALAMINY,B049,31540,31371,Montégut-Lauragais,31,,,31371000ZC0030,,,,,,,,,,,,,0,,,,,T,terres,,,6025,1.912059,43.475529
2023-368993,2023-02-15,000002,Vente,1000,,,BORIO ROUGE,B013,31540,31371,Montégut-Lauragais,31,,,313710000B0886,,,,,,,,,,,,,0,,,,,T,terres,,,851,1.915096,43.47401
2023-369956,2023-03-31,000001,Vente,1000,,,MAURAN,B033,31540,31371,Montégut-Lauragais,31,,,313710000A0306,,,,,,,,,,,,,0,,,,,P,prés,,,1390,1.918421,43.48291
2023-375053,2023-06-26,000001,Vente,279000,10,,RTE DE ROUMENS,0140,31540,31371,Montégut-Lauragais,31,,,313710000B0876,,,,,,,,,,,,,0,3,Dépendance,,0,AG,terrains d'agrément,PARC,Parc,1016,1.927976,43.474932
2023-375053,2023-06-26,000001,Vente,279000,10,,RTE DE ROUMENS,0140,31540,31371,Montégut-Lauragais,31,,,313710000B0876,,,,,,,,,,,,,0,3,Dépendance,,0,S,sols,,,1000,1.927976,43.474932
2023-375053,2023-06-26,000001,Vente,279000,10,,RTE DE ROUMENS,0140,31540,31371,Montégut-Lauragais,31,,,313710000B0876,,,,,,,,,,,,,0,1,Maison,158,4,AG,terrains d'agrément,PARC,Parc,1016,1.927976,43.474932
2023-375053,2023-06-26,000001,Vente,279000,10,,RTE DE ROUMENS,0140,31540,31371,Montégut-Lauragais,31,,,313710000B0876,,,,,,,,,,,,,0,1,Maison,158,4,S,sols,,,1000,1.927976,43.474932
2023-384621,2023-12-14,000001,Vente,30000,,,LA MASQUIERE,B032,31540,31371,Montégut-Lauragais,31,,,313710000B0672,,,,,,,,,,,,,0,,,,,P,prés,,,1026,1.926162,43.475802
